[
  {
    "id": "00000000-5437-fe79-6320-9555118b468c",
    "name": "Hermance / Lake Geneva",
    "area": "Gen\u00e8ve",
    "area_level_1": "Gen\u00e8ve",
    "country_code": "CH",
    "country": "Switzerland",
    "continent": "Europe",
    "utc_offset": 3600,
    "latitude": 46.3038,
    "longitude": 6.2407,
    "details": null
  },
  {
    "id": "00000000-5437-fe73-6320-9555118b4687",
    "name": "St Blaise / Lac de Neuchatel",
    "area": "Neuch\u00e2tel District",
    "area_level_1": "Canton of Neuch\u00e2tel",
    "country_code": "CH",
    "country": "Switzerland",
    "continent": "Europe",
    "utc_offset": 3600,
    "latitude": 47.0106,
    "longitude": 6.9883,
    "details": null
  },
  {
    "id": "00000000-5437-fe7c-6320-9555118b468f",
    "name": "Vengeron / Lake Geneva",
    "area": "Gen\u00e8ve",
    "area_level_1": "Gen\u00e8ve",
    "country_code": "CH",
    "country": "Switzerland",
    "continent": "Europe",
    "utc_offset": 3600,
    "latitude": 46.2462,
    "longitude": 6.1536,
    "details": null
  },
  {
    "id": "00000000-5437-fe81-6320-9555118b4693",
    "name": "Daubensee",
    "area": "Leuk",
    "area_level_1": "Valais",
    "country_code": "CH",
    "country": "Switzerland",
    "continent": "Europe",
    "utc_offset": 3600,
    "latitude": 46.4153,
    "longitude": 7.6204,
    "details": null
  },
  {
    "id": "00000000-5437-fe74-6320-9555118b4688",
    "name": "Scherzingen / Bodensee",
    "area": "Kreuzlingen District",
    "area_level_1": "Thurgau",
    "country_code": "CH",
    "country": "Switzerland",
    "continent": "Europe",
    "utc_offset": 3600,
    "latitude": 47.6369,
    "longitude": 9.2228,
    "details": null
  },
  {
    "id": "00000000-5437-fe77-6320-9555118b468a",
    "name": "Estavayer-le-Lac / Lac de Neuchatel",
    "area": "La Broye",
    "area_level_1": "Canton of Fribourg",
    "country_code": "CH",
    "country": "Switzerland",
    "continent": "Europe",
    "utc_offset": 3600,
    "latitude": 46.8566,
    "longitude": 6.8481,
    "details": null
  },
  {
    "id": "00000000-5437-fe78-6320-9555118b468b",
    "name": "Forel / Lake Geneva",
    "area": "Gen\u00e8ve",
    "area_level_1": "Gen\u00e8ve",
    "country_code": "CH",
    "country": "Switzerland",
    "continent": "Europe",
    "utc_offset": 3600,
    "latitude": 46.2731,
    "longitude": 6.1712,
    "details": null
  },
  {
    "id": "00000000-5437-fe72-6320-9555118b4686",
    "name": "Portalban / Lac de Neuchatel",
    "area": "La Broye",
    "area_level_1": "Canton of Fribourg",
    "country_code": "CH",
    "country": "Switzerland",
    "continent": "Europe",
    "utc_offset": 3600,
    "latitude": 46.923,
    "longitude": 6.9537,
    "details": null
  },
  {
    "id": "00000000-5437-fe7e-6320-9555118b4691",
    "name": "Fluelen / Urnersee",
    "area": "Uri",
    "area_level_1": "Uri",
    "country_code": "CH",
    "country": "Switzerland",
    "continent": "Europe",
    "utc_offset": 3600,
    "latitude": 46.9165,
    "longitude": 8.6231,
    "details": null
  },
  {
    "id": "00000000-5437-fe7d-6320-9555118b4690",
    "name": "Berlingen / Bodensee",
    "area": "Steckborn District",
    "area_level_1": "Thurgau",
    "country_code": "CH",
    "country": "Switzerland",
    "continent": "Europe",
    "utc_offset": 3600,
    "latitude": 47.675,
    "longitude": 9.0369,
    "details": null
  },
  {
    "id": "00000000-5437-fe80-6320-9555118b4692",
    "name": "Silvaplana See",
    "area": "Maloja District",
    "area_level_1": "Grisons",
    "country_code": "CH",
    "country": "Switzerland",
    "continent": "Europe",
    "utc_offset": 3600,
    "latitude": 46.456,
    "longitude": 9.7976,
    "details": null
  },
  {
    "id": "00000000-5501-eb84-22f5-204e418b4594",
    "name": "Kreuzlingen / Bodensee",
    "area": "Kreuzlingen District",
    "area_level_1": "Thurgau",
    "country_code": "CH",
    "country": "Switzerland",
    "continent": "Europe",
    "utc_offset": 3600,
    "latitude": 47.6479,
    "longitude": 9.1965,
    "details": null
  },
  {
    "id": "00000000-5501-eb86-22f5-204d418b4567",
    "name": "Ludwigshafen Camping / Bodensee",
    "area": "Freiburg",
    "area_level_1": "Baden-W\u00fcrttemberg",
    "country_code": "DE",
    "country": "Germany",
    "continent": "Europe",
    "utc_offset": 3600,
    "latitude": 47.8173,
    "longitude": 9.0413,
    "details": null
  },
  {
    "id": "00000000-5501-eb82-22f5-204e418b4591",
    "name": "Fischbach Ost / Bodensee",
    "area": "T\u00fcbingen",
    "area_level_1": "Baden-W\u00fcrttemberg",
    "country_code": "DE",
    "country": "Germany",
    "continent": "Europe",
    "utc_offset": 3600,
    "latitude": 47.6654,
    "longitude": 9.4217,
    "details": null
  },
  {
    "id": "00000000-5501-eb85-22f5-204e418b4596",
    "name": "Langenargen Yachthafen / Bodensee",
    "area": "T\u00fcbingen",
    "area_level_1": "Baden-W\u00fcrttemberg",
    "country_code": "DE",
    "country": "Germany",
    "continent": "Europe",
    "utc_offset": 3600,
    "latitude": 47.5893,
    "longitude": 9.5494,
    "details": null
  },
  {
    "id": "00000000-5501-eb83-22f5-204e418b4593",
    "name": "Klinik / Bodensee",
    "area": "Freiburg",
    "area_level_1": "Baden-W\u00fcrttemberg",
    "country_code": "DE",
    "country": "Germany",
    "continent": "Europe",
    "utc_offset": 3600,
    "latitude": 47.6648,
    "longitude": 9.1991,
    "details": null
  },
  {
    "id": "00000000-5501-eb86-22f5-204d418b4568",
    "name": "Rohrspitz / Bodensee",
    "area": "Bregenz District",
    "area_level_1": "Vorarlberg",
    "country_code": "AT",
    "country": "Austria",
    "continent": "Europe",
    "utc_offset": 3600,
    "latitude": 47.4985,
    "longitude": 9.6287,
    "details": null
  },
  {
    "id": "00000000-5501-eb81-22f5-204e418b4590",
    "name": "Altnau / Bodensee",
    "area": "Kreuzlingen District",
    "area_level_1": "Thurgau",
    "country_code": "CH",
    "country": "Switzerland",
    "continent": "Europe",
    "utc_offset": 3600,
    "latitude": 47.6227,
    "longitude": 9.2694,
    "details": null
  },
  {
    "id": "00000000-5501-eb88-22f5-204d418b456a",
    "name": "Seebruecke / Bodensee",
    "area": "Freiburg",
    "area_level_1": "Baden-W\u00fcrttemberg",
    "country_code": "DE",
    "country": "Germany",
    "continent": "Europe",
    "utc_offset": 3600,
    "latitude": 47.6634,
    "longitude": 9.2084,
    "details": null
  },
  {
    "id": "00000000-5501-eb88-22f5-204d418b456b",
    "name": "Strandbad Hoernle / Bodensee",
    "area": "Freiburg",
    "area_level_1": "Baden-W\u00fcrttemberg",
    "country_code": "DE",
    "country": "Germany",
    "continent": "Europe",
    "utc_offset": 3600,
    "latitude": 47.6772,
    "longitude": 9.2102,
    "details": null
  },
  {
    "id": "00000000-5501-eb89-22f5-204d418b456d",
    "name": "Wasserburg / Bodensee",
    "area": "Swabia",
    "area_level_1": "Bavaria",
    "country_code": "DE",
    "country": "Germany",
    "continent": "Europe",
    "utc_offset": 3600,
    "latitude": 47.566,
    "longitude": 9.64,
    "details": null
  },
  {
    "id": "00000000-5501-eb58-22f5-2055418b4567",
    "name": "Buehl / Alpsee",
    "area": "Swabia",
    "area_level_1": "Bavaria",
    "country_code": "DE",
    "country": "Germany",
    "continent": "Europe",
    "utc_offset": 3600,
    "latitude": 47.5724,
    "longitude": 10.1926,
    "details": null
  },
  {
    "id": "00000000-5501-eb87-22f5-204d418b4569",
    "name": "Romanshorn / Bodensee",
    "area": "Arbon District",
    "area_level_1": "Thurgau",
    "country_code": "CH",
    "country": "Switzerland",
    "continent": "Europe",
    "utc_offset": 3600,
    "latitude": 47.5738,
    "longitude": 9.3763,
    "details": null
  },
  {
    "id": "00000000-5501-eb89-22f5-204d418b456c",
    "name": "Ueberlingen / Bodensee",
    "area": "T\u00fcbingen",
    "area_level_1": "Baden-W\u00fcrttemberg",
    "country_code": "DE",
    "country": "Germany",
    "continent": "Europe",
    "utc_offset": 3600,
    "latitude": 47.7595,
    "longitude": 9.174,
    "details": null
  },
  {
    "id": "00000000-5501-eb84-22f5-204e418b4595",
    "name": "Langenargen Kurhotel / Bodensee",
    "area": "T\u00fcbingen",
    "area_level_1": "Baden-W\u00fcrttemberg",
    "country_code": "DE",
    "country": "Germany",
    "continent": "Europe",
    "utc_offset": 3600,
    "latitude": 47.5951,
    "longitude": 9.5425,
    "details": null
  },
  {
    "id": "00000000-5501-eb82-22f5-204e418b4592",
    "name": "Immenstaad / Bodensee",
    "area": "T\u00fcbingen",
    "area_level_1": "Baden-W\u00fcrttemberg",
    "country_code": "DE",
    "country": "Germany",
    "continent": "Europe",
    "utc_offset": 3600,
    "latitude": 47.6603,
    "longitude": 9.3569,
    "details": null
  },
  {
    "id": "00000000-5501-eb85-22f5-204e418b4597",
    "name": "Lindau Insel / Bodensee",
    "area": "Swabia",
    "area_level_1": "Bavaria",
    "country_code": "DE",
    "country": "Germany",
    "continent": "Europe",
    "utc_offset": 3600,
    "latitude": 47.5467,
    "longitude": 9.6764,
    "details": null
  },
  {
    "id": "00000000-5501-ecba-22f5-20a5418b456b",
    "name": "Refuge / Lac De Neuchatel",
    "area": "Jura-Nord vaudois District",
    "area_level_1": "Vaud",
    "country_code": "CH",
    "country": "Switzerland",
    "continent": "Europe",
    "utc_offset": 3600,
    "latitude": 46.8058,
    "longitude": 6.743,
    "details": null
  },
  {
    "id": "00000000-5501-ec56-22f5-2096418b456c",
    "name": "Hegne / Gnadensee",
    "area": "Freiburg",
    "area_level_1": "Baden-W\u00fcrttemberg",
    "country_code": "DE",
    "country": "Germany",
    "continent": "Europe",
    "utc_offset": 3600,
    "latitude": 47.7039,
    "longitude": 9.0959,
    "details": null
  },
  {
    "id": "00000000-5501-ecc1-22f5-20b1418b4568",
    "name": "Lago di Idro",
    "area": "Province of Brescia",
    "area_level_1": "Lombardy",
    "country_code": "IT",
    "country": "Italy",
    "continent": "Europe",
    "utc_offset": 3600,
    "latitude": 45.8098,
    "longitude": 10.5215,
    "details": null
  },
  {
    "id": "00000000-5501-eccb-22f5-20b7418b4568",
    "name": "La Punta / Lake Como",
    "area": "Province of Como",
    "area_level_1": "Lombardy",
    "country_code": "IT",
    "country": "Italy",
    "continent": "Europe",
    "utc_offset": 3600,
    "latitude": 46.1653,
    "longitude": 9.3779,
    "details": null
  },
  {
    "id": "00000000-5501-f05e-22f5-2054428b456e",
    "name": "Steckborn West / Untersee",
    "area": "Steckborn District",
    "area_level_1": "Thurgau",
    "country_code": "CH",
    "country": "Switzerland",
    "continent": "Europe",
    "utc_offset": 3600,
    "latitude": 47.6592,
    "longitude": 8.9705,
    "details": null
  },
  {
    "id": "00000000-5501-f05b-22f5-2054428b456a",
    "name": "Berlingen / Untersee",
    "area": "Steckborn District",
    "area_level_1": "Thurgau",
    "country_code": "CH",
    "country": "Switzerland",
    "continent": "Europe",
    "utc_offset": 3600,
    "latitude": 47.6724,
    "longitude": 9.011,
    "details": null
  },
  {
    "id": "00000000-5501-f026-22f5-2048428b4585",
    "name": "Aha / Schluchsee",
    "area": "Freiburg",
    "area_level_1": "Baden-W\u00fcrttemberg",
    "country_code": "DE",
    "country": "Germany",
    "continent": "Europe",
    "utc_offset": 3600,
    "latitude": 47.833,
    "longitude": 8.132,
    "details": null
  },
  {
    "id": "00000000-5501-f05c-22f5-2054428b456b",
    "name": "Mammern / Untersee",
    "area": "Steckborn District",
    "area_level_1": "Thurgau",
    "country_code": "CH",
    "country": "Switzerland",
    "continent": "Europe",
    "utc_offset": 3600,
    "latitude": 47.6479,
    "longitude": 8.9163,
    "details": null
  },
  {
    "id": "00000000-5501-f006-22f5-2024428b4590",
    "name": "Moosbach / Rottachsee",
    "area": "Swabia",
    "area_level_1": "Bavaria",
    "country_code": "DE",
    "country": "Germany",
    "continent": "Europe",
    "utc_offset": 3600,
    "latitude": 47.6378,
    "longitude": 10.3665,
    "details": null
  },
  {
    "id": "00000000-5501-edee-22f5-20ed418b457d",
    "name": "Murten / Murtensee",
    "area": "See District",
    "area_level_1": "Canton of Fribourg",
    "country_code": "CH",
    "country": "Switzerland",
    "continent": "Europe",
    "utc_offset": 3600,
    "latitude": 46.9275,
    "longitude": 7.1112,
    "details": null
  },
  {
    "id": "00000000-5501-f05d-22f5-2054428b456c",
    "name": "Mannenbach / Untersee",
    "area": "Steckborn District",
    "area_level_1": "Thurgau",
    "country_code": "CH",
    "country": "Switzerland",
    "continent": "Europe",
    "utc_offset": 3600,
    "latitude": 47.6745,
    "longitude": 9.0498,
    "details": null
  },
  {
    "id": "00000000-5501-f07e-22f5-2033428b456c",
    "name": "Radolfzell / Zeller See",
    "area": "Freiburg",
    "area_level_1": "Baden-W\u00fcrttemberg",
    "country_code": "DE",
    "country": "Germany",
    "continent": "Europe",
    "utc_offset": 3600,
    "latitude": 47.7366,
    "longitude": 8.9557,
    "details": null
  },
  {
    "id": "00000000-5d41-e38b-2aef-eb9f782cc6de",
    "name": "Bouveret ",
    "area": "Valais",
    "area_level_1": "Martigny",
    "country_code": "CH",
    "country": "Switzerland",
    "continent": "Europe",
    "utc_offset": 3600,
    "latitude": 46.3894253,
    "longitude": 6.8598977,
    "details": null
  },
  {
    "id": "00000000-5ecb-8410-09db-5700046c197e",
    "name": "St Jorioz",
    "area": "Saint-Jorioz",
    "area_level_1": "Auvergne-Rh\u00f4ne-Alpes",
    "country_code": "FR",
    "country": "France",
    "continent": "Europe",
    "utc_offset": 3600,
    "latitude": 45.8438717,
    "longitude": 6.1683649,
    "details": null
  },
  {
    "id": "00000000-5ed4-b70b-ef5a-1c00044c8ce9",
    "name": "Lungernsee",
    "area": "Lungern",
    "area_level_1": "Obwalden",
    "country_code": "CH",
    "country": "Switzerland",
    "continent": "Europe",
    "utc_offset": 3600,
    "latitude": 46.789352,
    "longitude": 8.15849,
    "details": null
  },
  {
    "id": "00000000-5edb-fa70-670e-3600049e230d",
    "name": "Sempachersee",
    "area": "Sempach",
    "area_level_1": "Luzern",
    "country_code": "CH",
    "country": "Switzerland",
    "continent": "Europe",
    "utc_offset": 3600,
    "latitude": 47.133374,
    "longitude": 8.1898228,
    "details": null
  },
  {
    "id": "00000000-5501-f05e-22f5-2054428b456d",
    "name": "Steckborn Ost / Untersee",
    "area": "Steckborn District",
    "area_level_1": "Thurgau",
    "country_code": "CH",
    "country": "Switzerland",
    "continent": "Europe",
    "utc_offset": 3600,
    "latitude": 47.669,
    "longitude": 8.9917,
    "details": null
  },
  {
    "id": "00000000-5626-49fa-818b-304649b308a8",
    "name": "Dervio",
    "area": "Province of Lecco",
    "area_level_1": "Lombardy",
    "country_code": "IT",
    "country": "Italy",
    "continent": "Europe",
    "utc_offset": 3600,
    "latitude": 46.076758,
    "longitude": 9.298754,
    "details": null
  },
  {
    "id": "00000000-5626-49fa-818b-304649b3090d",
    "name": "Turtmann",
    "area": "Leuk",
    "area_level_1": "Valais",
    "country_code": "CH",
    "country": "Switzerland",
    "continent": "Europe",
    "utc_offset": 3600,
    "latitude": 46.30457,
    "longitude": 7.711892,
    "details": null
  },
  {
    "id": "00000000-56c5-97c3-0d38-72e54689fbb6",
    "name": "Lago di Lugano",
    "area": "Lugano District",
    "area_level_1": "Ticino",
    "country_code": "CH",
    "country": "Switzerland",
    "continent": "Europe",
    "utc_offset": 3600,
    "latitude": 45.979857,
    "longitude": 8.89487,
    "details": null
  },
  {
    "id": "00000000-57a4-70d8-ef39-e6033c474249",
    "name": "Thunersee",
    "area": "Thun District",
    "area_level_1": "Canton of Bern",
    "country_code": "CH",
    "country": "Switzerland",
    "continent": "Europe",
    "utc_offset": 3600,
    "latitude": 46.727058,
    "longitude": 7.629525,
    "details": null
  },
  {
    "id": "00000000-57a4-70d5-ef39-e6033c474230",
    "name": "Pensier",
    "area": "See District",
    "area_level_1": "Canton of Fribourg",
    "country_code": "CH",
    "country": "Switzerland",
    "continent": "Europe",
    "utc_offset": 3600,
    "latitude": 46.846826,
    "longitude": 7.141963,
    "details": null
  },
  {
    "id": "056f21d6-4eda-4398-8189-66df3316e990",
    "name": "Cudrefin / Lac de Neuchatel",
    "area": "Cudrefin",
    "area_level_1": "Vaud",
    "country_code": "CH",
    "country": "Switzerland",
    "continent": "Europe",
    "utc_offset": 3600,
    "latitude": 46.9587591,
    "longitude": 7.0166072,
    "details": null
  },
  {
    "id": "512e6c29-e119-4b7c-8c10-3783dfb5d460",
    "name": "Sufner See",
    "area": "Sufers",
    "area_level_1": "Graub\u00fcnden",
    "country_code": "CH",
    "country": "Switzerland",
    "continent": "Europe",
    "utc_offset": 3600,
    "latitude": 46.566133,
    "longitude": 9.359696,
    "details": null
  },
  {
    "id": "00000000-5437-f285-6320-95700c8b4f0f",
    "name": "Seebad Fischbach / Bodensee",
    "area": "T\u00fcbingen",
    "area_level_1": "Baden-W\u00fcrttemberg",
    "country_code": "DE",
    "country": "Germany",
    "continent": "Europe",
    "utc_offset": 3600,
    "latitude": 47.6669,
    "longitude": 9.4098,
    "details": null
  },
  {
    "id": "00000000-5437-f22b-6320-95700c8b4ebe",
    "name": "Excenevex / Lake Geneva",
    "area": "Haute-Savoie",
    "area_level_1": "Rhone-Alpes",
    "country_code": "FR",
    "country": "France",
    "continent": "Europe",
    "utc_offset": 3600,
    "latitude": 46.3498,
    "longitude": 6.3589,
    "details": null
  },
  {
    "id": "00000000-5437-f286-6320-95700c8b4f10",
    "name": "Wasserwerk / Bodensee",
    "area": "Freiburg",
    "area_level_1": "Baden-W\u00fcrttemberg",
    "country_code": "DE",
    "country": "Germany",
    "continent": "Europe",
    "utc_offset": 3600,
    "latitude": 47.6713,
    "longitude": 9.2137,
    "details": null
  },
  {
    "id": "00000000-5437-f27d-6320-95700c8b4f08",
    "name": "Birnau / Bodensee",
    "area": "T\u00fcbingen",
    "area_level_1": "Baden-W\u00fcrttemberg",
    "country_code": "DE",
    "country": "Germany",
    "continent": "Europe",
    "utc_offset": 3600,
    "latitude": 47.7425,
    "longitude": 9.221,
    "details": null
  },
  {
    "id": "00000000-5437-f281-6320-95700c8b4f0b",
    "name": "Langenargen DLRG / Bodensee",
    "area": "T\u00fcbingen",
    "area_level_1": "Baden-W\u00fcrttemberg",
    "country_code": "DE",
    "country": "Germany",
    "continent": "Europe",
    "utc_offset": 3600,
    "latitude": 47.6085,
    "longitude": 9.5281,
    "details": null
  },
  {
    "id": "00000000-5437-f284-6320-95700c8b4f0e",
    "name": "Sailing / Bodensee",
    "area": "Freiburg",
    "area_level_1": "Baden-W\u00fcrttemberg",
    "country_code": "DE",
    "country": "Germany",
    "continent": "Europe",
    "utc_offset": 3600,
    "latitude": 47.6663,
    "longitude": 9.192,
    "details": null
  },
  {
    "id": "00000000-5437-f282-6320-95700c8b4f0c",
    "name": "Ludwigshafen / Bodensee",
    "area": "Freiburg",
    "area_level_1": "Baden-W\u00fcrttemberg",
    "country_code": "DE",
    "country": "Germany",
    "continent": "Europe",
    "utc_offset": 3600,
    "latitude": 47.8142,
    "longitude": 9.0636,
    "details": null
  },
  {
    "id": "00000000-5437-f27e-6320-95700c8b4f09",
    "name": "Hagnau / Bodensee",
    "area": "T\u00fcbingen",
    "area_level_1": "Baden-W\u00fcrttemberg",
    "country_code": "DE",
    "country": "Germany",
    "continent": "Europe",
    "utc_offset": 3600,
    "latitude": 47.671,
    "longitude": 9.3273,
    "details": null
  },
  {
    "id": "00000000-5437-f27f-6320-95700c8b4f0a",
    "name": "Klausenhorn / Bodensee",
    "area": "Freiburg",
    "area_level_1": "Baden-W\u00fcrttemberg",
    "country_code": "DE",
    "country": "Germany",
    "continent": "Europe",
    "utc_offset": 3600,
    "latitude": 47.7485,
    "longitude": 9.1486,
    "details": null
  },
  {
    "id": "00000000-5437-f283-6320-95700c8b4f0d",
    "name": "Nussdorf Surfclub / Bodensee",
    "area": "T\u00fcbingen",
    "area_level_1": "Baden-W\u00fcrttemberg",
    "country_code": "DE",
    "country": "Germany",
    "continent": "Europe",
    "utc_offset": 3600,
    "latitude": 47.7507,
    "longitude": 9.1944,
    "details": null
  },
  {
    "id": "00000000-5437-f287-6320-95700c8b4f11",
    "name": "Allensbach Seegarten / Untersee",
    "area": "Freiburg",
    "area_level_1": "Baden-W\u00fcrttemberg",
    "country_code": "DE",
    "country": "Germany",
    "continent": "Europe",
    "utc_offset": 3600,
    "latitude": 47.7126,
    "longitude": 9.0684,
    "details": null
  },
  {
    "id": "00000000-5437-f3b7-6320-95700c8b5015",
    "name": "Petersthal / Rottachsee",
    "area": "Swabia",
    "area_level_1": "Bavaria",
    "country_code": "DE",
    "country": "Germany",
    "continent": "Europe",
    "utc_offset": 3600,
    "latitude": 47.6367,
    "longitude": 10.3784,
    "details": null
  },
  {
    "id": "00000000-5437-f8e5-6320-95a5098b45db",
    "name": "Colico / Lake Como",
    "area": "Province of Lecco",
    "area_level_1": "Lombardy",
    "country_code": "IT",
    "country": "Italy",
    "continent": "Europe",
    "utc_offset": 3600,
    "latitude": 46.1409,
    "longitude": 9.3725,
    "details": null
  },
  {
    "id": "00000000-58b8-0f77-1c64-0910dd48a4d8",
    "name": "Berninapass",
    "area": "Maloja District",
    "area_level_1": "Grisons",
    "country_code": "CH",
    "country": "Switzerland",
    "continent": "Europe",
    "utc_offset": 3600,
    "latitude": 46.419162,
    "longitude": 10.003223,
    "details": null
  },
  {
    "id": "00000000-5956-2058-aae7-ef2e99d590fb",
    "name": "Br\u00fcggli / Zugersee",
    "area": "Zug",
    "area_level_1": "Canton of Zug",
    "country_code": "CH",
    "country": "Switzerland",
    "continent": "Europe",
    "utc_offset": 3600,
    "latitude": 47.177013,
    "longitude": 8.49321,
    "details": null
  },
  {
    "id": "00000000-5956-205d-aae7-ef2e99d59114",
    "name": "Kehlhof / Z\u00fcrichsee",
    "area": "Meilen District",
    "area_level_1": "Zurich",
    "country_code": "CH",
    "country": "Switzerland",
    "continent": "Europe",
    "utc_offset": 3600,
    "latitude": 47.233849,
    "longitude": 8.734579,
    "details": null
  },
  {
    "id": "00000000-5956-205d-aae7-ef2e99d59115",
    "name": "Isleten / Urnersee",
    "area": "Uri",
    "area_level_1": "Uri",
    "country_code": "CH",
    "country": "Switzerland",
    "continent": "Europe",
    "utc_offset": 3600,
    "latitude": 46.918934,
    "longitude": 8.596773,
    "details": null
  },
  {
    "id": "00000000-5956-2065-aae7-ef2e99d59141",
    "name": "Walenstadt",
    "area": "Sarganserland",
    "area_level_1": "St. Gallen",
    "country_code": "CH",
    "country": "Switzerland",
    "continent": "Europe",
    "utc_offset": 3600,
    "latitude": 47.119811,
    "longitude": 9.300495,
    "details": null
  },
  {
    "id": "0fdad9b2-9268-4a31-bdc7-95957d248f59",
    "name": "Lac des Rousses",
    "area": "Les Rousses",
    "area_level_1": "Bourgogne-Franche-Comt\u00e9",
    "country_code": "FR",
    "country": "France",
    "continent": "Europe",
    "utc_offset": 3600,
    "latitude": 46.5021562,
    "longitude": 6.0851651,
    "details": null
  },
  {
    "id": "00000000-599f-1e13-1c64-09382673c3aa",
    "name": "Morlon",
    "area": "Gruy\u00e8re District",
    "area_level_1": "Canton of Fribourg",
    "country_code": "CH",
    "country": "Switzerland",
    "continent": "Europe",
    "utc_offset": 3600,
    "latitude": 46.626529,
    "longitude": 7.095667,
    "details": null
  },
  {
    "id": "00000000-5a78-ad07-957c-ae3fb80fb892",
    "name": "Lac d'Annecy Albigny",
    "area": "Haute-Savoie",
    "area_level_1": "Auvergne-Rh\u00f4ne-Alpes",
    "country_code": "FR",
    "country": "France",
    "continent": "Europe",
    "utc_offset": 3600,
    "latitude": 45.9,
    "longitude": 6.14,
    "details": null
  },
  {
    "id": "00000000-5ada-48f8-957c-ae78b06ba15d",
    "name": "Lido di Cannobio",
    "area": "Province of Verbano-Cusio-Ossola",
    "area_level_1": "Piedmont",
    "country_code": "IT",
    "country": "Italy",
    "continent": "Europe",
    "utc_offset": 3600,
    "latitude": 46.067951,
    "longitude": 8.700205,
    "details": null
  },
  {
    "id": "00000000-5437-f8e6-6320-95a5098b45dc",
    "name": "Gera Lario / Lake Como",
    "area": "Province of Como",
    "area_level_1": "Lombardy",
    "country_code": "IT",
    "country": "Italy",
    "continent": "Europe",
    "utc_offset": 3600,
    "latitude": 46.168,
    "longitude": 9.373,
    "details": null
  },
  {
    "id": "00000000-5437-f8e7-6320-95a5098b45dd",
    "name": "Pare / Lake Como",
    "area": "Province of Lecco",
    "area_level_1": "Lombardy",
    "country_code": "IT",
    "country": "Italy",
    "continent": "Europe",
    "utc_offset": 3600,
    "latitude": 45.8584,
    "longitude": 9.37,
    "details": null
  },
  {
    "id": "00000000-5437-f9f6-6320-95a5098b46ce",
    "name": "Lago Di Resia",
    "area": "Province of Bolzano - South Tyrol",
    "area_level_1": "Trentino-Alto Adige/South Tyrol",
    "country_code": "IT",
    "country": "Italy",
    "continent": "Europe",
    "utc_offset": 3600,
    "latitude": 46.8053,
    "longitude": 10.5368,
    "details": null
  },
  {
    "id": "00000000-5437-f9f9-6320-95a5098b46d1",
    "name": "Ponte Caffaro / Lago di Idro",
    "area": "Province of Brescia",
    "area_level_1": "Lombardy",
    "country_code": "IT",
    "country": "Italy",
    "continent": "Europe",
    "utc_offset": 3600,
    "latitude": 45.8116,
    "longitude": 10.5195,
    "details": null
  },
  {
    "id": "00000000-5437-fe71-6320-9555118b4685",
    "name": "Ipsach / Bielersee",
    "area": "Nidau District",
    "area_level_1": "Canton of Bern",
    "country_code": "CH",
    "country": "Switzerland",
    "continent": "Europe",
    "utc_offset": 3600,
    "latitude": 47.1184,
    "longitude": 7.2227,
    "details": null
  },
  {
    "id": "00000000-5437-fe7b-6320-9555118b468e",
    "name": "St. Sulpice / Lake Geneva",
    "area": "Ouest Lausannois District",
    "area_level_1": "Vaud",
    "country_code": "CH",
    "country": "Switzerland",
    "continent": "Europe",
    "utc_offset": 3600,
    "latitude": 46.508,
    "longitude": 6.5447,
    "details": null
  },
  {
    "id": "7d723c02-c227-474c-8d52-b97d11d55c35",
    "name": "Vevey",
    "area": "Vevey",
    "area_level_1": "Vaud",
    "country_code": "CH",
    "country": "Switzerland",
    "continent": "Europe",
    "utc_offset": 3600,
    "latitude": 46.460842,
    "longitude": 6.8352301,
    "details": null
  },
  {
    "id": "00000000-5b32-be0b-a2e3-483d882ab15d",
    "name": "Dongo",
    "area": "Province of Como",
    "area_level_1": "Lombardy",
    "country_code": "IT",
    "country": "Italy",
    "continent": "Europe",
    "utc_offset": 3600,
    "latitude": 46.129765,
    "longitude": 9.289758,
    "details": null
  },
  {
    "id": "00000000-5b34-2762-a2e3-484de1b90b51",
    "name": "Saint-Prex",
    "area": "Morges District",
    "area_level_1": "Vaud",
    "country_code": "CH",
    "country": "Switzerland",
    "continent": "Europe",
    "utc_offset": 3600,
    "latitude": 46.482911,
    "longitude": 6.458343,
    "details": null
  },
  {
    "id": "00000000-5b35-5b1c-a2e3-485daa1cd812",
    "name": "Saint-Joux / Bielersee",
    "area": "La Neuveville District",
    "area_level_1": "Canton of Bern",
    "country_code": "CH",
    "country": "Switzerland",
    "continent": "Europe",
    "utc_offset": 3600,
    "latitude": 47.068087,
    "longitude": 7.110452,
    "details": null
  },
  {
    "id": "00000000-5b95-4edf-a2e3-480ef2184269",
    "name": "Mandello del Lario /Como Lake",
    "area": "Province of Lecco",
    "area_level_1": "Lombardy",
    "country_code": "IT",
    "country": "Italy",
    "continent": "Europe",
    "utc_offset": 3600,
    "latitude": 45.913433,
    "longitude": 9.312984,
    "details": null
  },
  {
    "id": "00000000-5bce-5812-a2e3-481d21c19136",
    "name": "\u00c4gerisee",
    "area": "Zug",
    "area_level_1": "Canton of Zug",
    "country_code": "CH",
    "country": "Switzerland",
    "continent": "Europe",
    "utc_offset": 3600,
    "latitude": 47.11279,
    "longitude": 8.62481,
    "details": null
  },
  {
    "id": "00000000-5d12-5910-2aef-eb303872b398",
    "name": "Yvonand",
    "area": "Yvonand",
    "area_level_1": "Vaud",
    "country_code": "CH",
    "country": "Switzerland",
    "continent": "Europe",
    "utc_offset": 3600,
    "latitude": 46.8054,
    "longitude": 6.7362,
    "details": null
  },
  {
    "id": "ccc6bff3-4b47-4f79-b1eb-c177fa34895e",
    "name": "Sisikon / Urnersee",
    "area": "Morschach",
    "area_level_1": "Schwyz",
    "country_code": "CH",
    "country": "Switzerland",
    "continent": "Europe",
    "utc_offset": 3600,
    "latitude": 46.959444,
    "longitude": 8.603889,
    "details": null
  },
  {
    "id": "00000000-5437-fe7a-6320-9555118b468d",
    "name": "Dullive",
    "area": "Nyon District",
    "area_level_1": "Vaud",
    "country_code": "CH",
    "country": "Switzerland",
    "continent": "Europe",
    "utc_offset": 3600,
    "latitude": 46.425,
    "longitude": 6.2969,
    "details": null
  },
  {
    "id": "342fe660-febc-43e6-ac85-ef9acba9d671",
    "name": "Allaman",
    "area": "Allaman",
    "area_level_1": "Vaud",
    "country_code": "CH",
    "country": "Switzerland",
    "continent": "Europe",
    "utc_offset": 3600,
    "latitude": 46.4639938,
    "longitude": 6.3854052,
    "details": null
  },
  {
    "id": "23377a74-7e69-4f24-be7a-cfda1880108b",
    "name": "Lago Maggiore",
    "area": "Ispra",
    "area_level_1": "Lombardia",
    "country_code": "IT",
    "country": "Italy",
    "continent": "Europe",
    "utc_offset": 3600,
    "latitude": 45.8255331,
    "longitude": 8.5955716,
    "details": null
  },
  {
    "id": "9e56bcc0-1c0b-4d5b-918c-d25371ae910c",
    "name": "L\u00fcscherz",
    "area": "L\u00fcscherz",
    "area_level_1": "Bern",
    "country_code": "CH",
    "country": "Switzerland",
    "continent": "Europe",
    "utc_offset": 3600,
    "latitude": 47.0478098,
    "longitude": 7.1512879,
    "details": null
  },
  {
    "id": "eb9bcba4-9c7d-49bc-b696-cb828fdde85a",
    "name": "Beckenried Kite Addicted",
    "area": "Beckenried",
    "area_level_1": "Nidwalden",
    "country_code": "CH",
    "country": "Switzerland",
    "continent": "Europe",
    "utc_offset": 3600,
    "latitude": 46.96794701538615,
    "longitude": 8.481287000936105,
    "details": null
  },
  {
    "id": "eea2f6c9-06a2-4d00-b36b-8711161e1362",
    "name": "Port-Choiseul a Versoix",
    "area": "Versoix",
    "area_level_1": "Gen\u00e8ve",
    "country_code": "CH",
    "country": "Switzerland",
    "continent": "Europe",
    "utc_offset": 3600,
    "latitude": 46.2895,
    "longitude": 6.1707,
    "details": null
  },
  {
    "id": "279e65ed-ba79-477f-9e50-07f3bec3bb76",
    "name": "Le Rocheray",
    "area": "Le Chenit",
    "area_level_1": "Vaud",
    "country_code": "CH",
    "country": "Switzerland",
    "continent": "Europe",
    "utc_offset": 3600,
    "latitude": 46.62283554,
    "longitude": 6.251733025,
    "details": null
  },
  {
    "id": "732933aa-3ae8-4b22-af71-a13ea7a3cbc9",
    "name": "Hochwang",
    "area": "St. Peter-Pagig",
    "area_level_1": "Graub\u00fcnden",
    "country_code": "CH",
    "country": "Switzerland",
    "continent": "Europe",
    "utc_offset": 3600,
    "latitude": 46.859061,
    "longitude": 9.676611,
    "details": null
  },
  {
    "id": "00000000-5d12-5906-2aef-eb303872b342",
    "name": "Cremia",
    "area": "Province of Como",
    "area_level_1": "Lombardy",
    "country_code": "IT",
    "country": "Italy",
    "continent": "Europe",
    "utc_offset": 3600,
    "latitude": 46.08884456,
    "longitude": 9.279404522,
    "details": null
  },
  {
    "id": "4e99e83a-a35a-48a7-b3f1-d8fa1d0e43b4",
    "name": "Bivio / Lunghin",
    "area": "Surses",
    "area_level_1": "Graub\u00fcnden",
    "country_code": "CH",
    "country": "Switzerland",
    "continent": "Europe",
    "utc_offset": 3600,
    "latitude": 46.44802777,
    "longitude": 9.659277391,
    "details": null
  },
  {
    "id": "13a24455-38db-4bcf-a089-bb22b56da110",
    "name": "Avers",
    "area": "Juf",
    "area_level_1": "Graub\u00fcnden",
    "country_code": "CH",
    "country": "Switzerland",
    "continent": "Europe",
    "utc_offset": 3600,
    "latitude": 46.444635,
    "longitude": 9.579758,
    "details": null
  },
  {
    "id": "12d99c05-626a-4ce5-9d62-99fe91d83f5a",
    "name": "Brambr\u00fcesch / Chur",
    "area": "Domat/Ems",
    "area_level_1": "Graub\u00fcnden",
    "country_code": "CH",
    "country": "Switzerland",
    "continent": "Europe",
    "utc_offset": 3600,
    "latitude": 46.804588,
    "longitude": 9.49554,
    "details": null
  },
  {
    "id": "5b79d87e-e13e-48d3-8ef2-94ced8abfced",
    "name": "Julier",
    "area": "Silvaplana",
    "area_level_1": "Graub\u00fcnden",
    "country_code": "CH",
    "country": "Switzerland",
    "continent": "Europe",
    "utc_offset": 3600,
    "latitude": 46.467415,
    "longitude": 9.766426,
    "details": null
  },
  {
    "id": "f10d8f88-5ae5-437d-80e1-96892d7f2ac5",
    "name": "Lecco",
    "area": "Lecco",
    "area_level_1": "Lombardia",
    "country_code": "IT",
    "country": "Italy",
    "continent": "Europe",
    "utc_offset": 3600,
    "latitude": 45.8569784,
    "longitude": 9.3837988,
    "details": null
  },
  {
    "id": "34c2409e-bb0e-41e0-8d39-98837bdc50d8",
    "name": "Abbadia Lariana",
    "area": "Abbadia Lariana",
    "area_level_1": "Lombardia",
    "country_code": "IT",
    "country": "Italy",
    "continent": "Europe",
    "utc_offset": 3600,
    "latitude": 45.893612,
    "longitude": 9.333748,
    "details": null
  },
  {
    "id": "668b2475-c1ed-40d0-94dc-6d4d41cd37ff",
    "name": "Germignaga",
    "area": "Germignaga",
    "area_level_1": "Lombardia",
    "country_code": "IT",
    "country": "Italy",
    "continent": "Europe",
    "utc_offset": 3600,
    "latitude": 45.9964978,
    "longitude": 8.7238864,
    "details": null
  },
  {
    "id": "00000000-5437-f289-6320-95700c8b4f12",
    "name": "Sandseele / Untersee",
    "area": "Reichenau",
    "area_level_1": "Baden-W\u00fcrttemberg",
    "country_code": "DE",
    "country": "Germany",
    "continent": "Europe",
    "utc_offset": 3600,
    "latitude": 47.69777,
    "longitude": 9.044322,
    "details": null
  },
  {
    "id": "2db04b02-7d39-47b2-94f6-aebc1bef83b1",
    "name": "Alpnach / Alpnachersee",
    "area": "Alpnach",
    "area_level_1": "Obwalden",
    "country_code": "CH",
    "country": "Switzerland",
    "continent": "Europe",
    "utc_offset": 3600,
    "latitude": 46.9567382,
    "longitude": 8.2821434,
    "details": null
  },
  {
    "id": "d490e0ad-5774-4655-8132-26a93198a210",
    "name": "Piona",
    "area": "Lombardia",
    "area_level_1": "Provincia di Lecco",
    "country_code": "IT",
    "country": "Italy",
    "continent": "Europe",
    "utc_offset": 3600,
    "latitude": 46.1235,
    "longitude": 9.34655,
    "details": null
  },
  {
    "id": "eba5a43c-3bae-4567-8914-266d423ddfaa",
    "name": "Domaso",
    "area": "Domaso",
    "area_level_1": "Lombardia",
    "country_code": "IT",
    "country": "Italy",
    "continent": "Europe",
    "utc_offset": 3600,
    "latitude": 46.1487456,
    "longitude": 9.3306203,
    "details": null
  },
  {
    "id": "644c17a6-3090-46e1-8ac3-9e05c1d75232",
    "name": "Maccagno",
    "area": "Maccagno con Pino e Veddasca",
    "area_level_1": "Lombardia",
    "country_code": "IT",
    "country": "Italy",
    "continent": "Europe",
    "utc_offset": 3600,
    "latitude": 46.0409074,
    "longitude": 8.7315784,
    "details": null
  },
  {
    "id": "9a8c085b-a59f-4ee6-bb34-452ac1865855",
    "name": "HastaKite",
    "area": "Bellano",
    "area_level_1": "Lombardia",
    "country_code": "IT",
    "country": "Italy",
    "continent": "Europe",
    "utc_offset": 3600,
    "latitude": 46.040199,
    "longitude": 9.299391,
    "details": null
  },
  {
    "id": "e82a2563-f3d7-4d95-bb32-6195b113e9e8",
    "name": "Sihlsee  Euthal",
    "area": "Einsiedeln",
    "area_level_1": "Schwyz",
    "country_code": "CH",
    "country": "Switzerland",
    "continent": "Europe",
    "utc_offset": 3600,
    "latitude": 47.0971235,
    "longitude": 8.8085075,
    "details": null
  },
  {
    "id": "16efdb6a-8fa3-4763-8e1d-3aa3bcfeb456",
    "name": "Horn",
    "area": "Richterswil",
    "area_level_1": "Z\u00fcrich",
    "country_code": "CH",
    "country": "Switzerland",
    "continent": "Europe",
    "utc_offset": 3600,
    "latitude": 47.2117746,
    "longitude": 8.7061551,
    "details": null
  },
  {
    "id": "815e0027-ea7a-4f24-9879-5553bed9a71e",
    "name": "Kesswil / Bodensee",
    "area": "Kesswil",
    "area_level_1": "Thurgau",
    "country_code": "CH",
    "country": "Switzerland",
    "continent": "Europe",
    "utc_offset": 3600,
    "latitude": 47.5996429,
    "longitude": 9.3164461,
    "details": null
  },
  {
    "id": "4684e223-d9fb-4c80-82a3-244fa2f3ca7e",
    "name": "Seemoos - W\u00fcrttembergischer Yacht Club",
    "area": "Friedrichshafen",
    "area_level_1": "Baden-W\u00fcrttemberg",
    "country_code": "DE",
    "country": "Germany",
    "continent": "Europe",
    "utc_offset": 3600,
    "latitude": 47.6566588,
    "longitude": 9.4363419,
    "details": null
  },
  {
    "id": "1ec4b949-f4b2-4ca0-99ca-c145f76a748a",
    "name": "Feldberg Snowkite",
    "area": "Feldberg",
    "area_level_1": "Baden-W\u00fcrttemberg",
    "country_code": "DE",
    "country": "Germany",
    "continent": "Europe",
    "utc_offset": 3600,
    "latitude": 47.86489,
    "longitude": 8.02245,
    "details": null
  },
  {
    "id": "effadb36-a5f8-45de-9579-092a77fb1e49",
    "name": "Friedrichshafener Bucht",
    "area": "Friedrichshafen",
    "area_level_1": "Baden-W\u00fcrttemberg",
    "country_code": "DE",
    "country": "Germany",
    "continent": "Europe",
    "utc_offset": 3600,
    "latitude": 47.6260117,
    "longitude": 9.4770515,
    "details": null
  },
  {
    "id": "70e21f87-69b2-4430-9ae7-13bd53dda531",
    "name": "Sorico - Lake Como",
    "area": "Sorico",
    "area_level_1": "Lombardia",
    "country_code": "IT",
    "country": "Italy",
    "continent": "Europe",
    "utc_offset": 3600,
    "latitude": 46.170265,
    "longitude": 9.3807518,
    "details": null
  },
  {
    "id": "d5628afb-86bf-4d1f-8dac-305a5878c77e",
    "name": "Davosersee",
    "area": "Davos Dorf",
    "area_level_1": "Graub\u00fcnden",
    "country_code": "CH",
    "country": "Switzerland",
    "continent": "Europe",
    "utc_offset": 3600,
    "latitude": 46.81737,
    "longitude": 9.84734,
    "details": null
  },
  {
    "id": "6d07f052-e69b-4675-a5cf-39b1d7ad727e",
    "name": "La T\u00e8ne",
    "area": "Lat\u00e9na",
    "area_level_1": "Neuch\u00e2tel",
    "country_code": "CH",
    "country": "Switzerland",
    "continent": "Europe",
    "utc_offset": 3600,
    "latitude": 47.0048982,
    "longitude": 7.0192934,
    "details": null
  },
  {
    "id": "9d6304cb-dd4d-4bc0-85f7-fd6b270ffb05",
    "name": "Musso",
    "area": "Musso",
    "area_level_1": "Lombardia",
    "country_code": "IT",
    "country": "Italy",
    "continent": "Europe",
    "utc_offset": 3600,
    "latitude": 46.1085062,
    "longitude": 9.2782532,
    "details": null
  }
]